$GPGGA,035701.418,,,,,0,2,,,M,,M,,*47
$GPGSA,A,1,,,,,,,,,,,,,,$GPGGA,035702.444,,,,,0,4,,,M,,M,,*4B
$GPGSA,A,1,,,,,,,,,,,,,,,*1E
$GPGSV,3,1,11,13,83,319,46,28,57,098,50,15,47,296,38,05,34,,34*7E
$GPGSV,3,2,11,30,33,067,43,24,12,254,,08,08,027,,21,07,3,3,11,20,07,327,,07,05,069,,17,01,130,*42
$GPRMC,035702.444,V,,0619,,,N*7C
$GPGGA,035703.445,4929.9545,N,00546.6886,E,1,4,2.48,372.5,M,47.6,M,,*5B
$GPGSA,A,3,05,13,28,30,,,,,,,,,2.66,2.48,0.96*0F
$GPGS,1,11,13,83,319,46,28,57,098,49,15,47,296,43,05,34,195,29*76
$G3,067,46,24,12,254,,08,08,027,,21,07,303,*7F
$GPGSV,3,3,11,20,0*42
$GPRMC,035703.445,A,4929.9545,N,00546.6886,E,0.40,355.70,04$GPGGA,035704.449,4929.9535,N,00546.6902,E,1,4,2.48,372.5,M,47.6,M,,*5A
$GPGSA,A,3,05,13,28,30,,,,,,,,,2.66,2.48,0.96*0F
$GPGS,1,11,13,83,319,43,28,57,098,47,15,47,296,45,05,34,195,38*7B
$G3,067,46,24,12,254,,08,08,027,,21,07,303,*7F
$GPGSV,3,3,11,20,0,,17,01,130,*42
$GPRMC,035704.449,A,4929.9535,N,00546.6902,E,1.,,,A*6B
$GPGGA,035705.451,4929.9521,N,00546.6920,E,1,4,2.48,372.4,M,47.6,M,,*56
$GPGSA,A,3,05,13,28,30,,,,,,,,,2.66,2.48,0.96*0F
$GPGS19,45,28,57,098,47,15,47,296,44,05,33,195,42*76
$GPGSV,3,2,11,32,254,,08,08,027,,21,07,303,*78
$GPGSV,3,3,11,20,07,327,,07,05,42
$GPRMC,035705.451,A,4929.9521,N,00546.6920,E,0.32,34.12,0406$GPGGA,035706.451,4929.9515,N,00546.6920,E,1,4,2.48,372.5,M,47.6,M,,*53
$GPGSA,A,3,05,13,28,30,,,,,,,,,2.66,2.48,0.96*0F
$GPGS,1,11,13,83,319,45,28,57,098,46,15,47,296,44,05,33,195,43*76
$G3,067,41,24,12,254,,08,08,027,,21,07,303,*78
$GPGSV,3,3,11,20,0,,17,01,130,*42
$GPRMC,035706.451,A,4929.9515,N,00546.6920,E,0.$GPGGA,035707.452,4929.9497,N,00546.6945,E,1,4,2.48,372.4,M,47.6,M,,*58
$GPGSA,A,3,05,13,28,30,,,,,,,,,2.66,2.48,0.96*0F
$GPGS,1,11,13,83,319,45,28,57,098,46,15,47,296,44,05,33,195,43*76
$G3,067,41,24,12,254,,08,08,027,,21,07,303,*78
$GPGSV,3,3,11,20,0,,17,01,130,*42
$GPRMC,035707.452,A,4929.9497,N,00546.6945,E,0.,,,A*6E
$GPGGA,035708.453,4929.9490,N,00546.6953,E,1,4,2.48,372.5,M,47.6,M,,*57
$GPGSA,A,3,05,13,28,30,,,,,,,,,2.66,2.48,0.96*0F
$GPGS,1,12,13,83,319,45,28,57,098,46,15,47,296,44,05,33,195,43*75
$G1,159,,24,12,254,35,08,08,026,*73
$GPGSV,3,3,12,21,07,303,,20,0,,17,01,130,*75
$GPRMC,035708.453,A,4929.9490,N,00546.6953,E,0.,,,A*63
$GPGGA,035709.453,4929.9485,N,00546.6958,E,1,4,2.48,372.4,M,47.6,M,,*58
$GPGSA,A,3,05,13,28,30,,,,,,,,,2.66,2.48,0.96*0F
$GPGS,1,12,13,83,319,45,28,57,098,46,15,47,296,44,05,33,195,43*75
$G3,067,41,37,31,159,,24,12,254,,08,08,026,*75
$GPGSV,3,3,12,21,0,,07,05,069,,17,01,130,*75
$GPRMC,035709.453,A,4929.9485,N,00549.11,040619,,,A*6B
$GPGGA,035710.453,4929.9481,N,00546.6962,E,1,4,2.48,372.4,M,47.6,M,,*5D
$GPGSA,A,3,05,13,28,30,,,,,,,,,2.66,2.48,0.96*0F
$GPGS,1,12,13,83,319,45,28,57,098,46,15,47,296,44,05,33,195,43*75
$G3,067,41,37,31,159,27,24,12,254,38,08,08,026,*7B
$GPGSV,3,3,12,,327,,07,05,069,,17,01,130,*75
$GPRMC,035710.453,A,4929.9481,N,8,77.56,040619,,,A*52
$GPGGA,035711.454,4929.9478,N,00546.6965,E,1,4,2.48,372.5,M,47.6,M,,*5B
$GPGSA,A,3,05,13,28,30,,,,,,,,,2.66,2.48,0.96*0F
$GPGS,1,12,13,83,319,45,28,57,098,46,15,47,296,44,05,33,195,43*75
$G1,159,26,24,12,254,40,08,08,026,*74
$GPGSV,3,3,12,21,07,303,,20069,,17,01,130,*75
$GPRMC,035711.454,A,4929.9478,N,00546.6965,E619,,,A*6E
$GPGGA,035712.453,4929.9473,N,00546.6967,E,1,4,2.48,372.5,M,47.6,M,,*56
$GPGSA,A,3,05,13,28,30,,,,,,,,,2.66,2.48,0.96*0F
$GPGS,1,12,13,83,319,46,28,57,098,47,15,47,296,44,05,33,195,43*77
$G3,067,40,37,31,159,28,24,12,254,37,08,08,026,*7A
$GPGSV,3,3,12,,327,,07,05,069,,17,01,130,*75
$GPRMC,035712.453,A,4929.9473,N,9,223.07,040619,,,A*6A
$GPGGA,035713.460,4929.9446,N,00546.6976,E,1,4,2.48,372.4,M,47.6,M,,*50
$GPGSA,A,3,05,13,28,30,,,,,,,,,2.66,2.48,0.96*0F
$GPGS,1,12,13,83,319,45,28,57,098,47,15,47,296,44,05,33,195,44*73
$G,37,31,159,26,24,12,254,35,08,08,026,*78
$GPGSV,3,3,12,21,07,30,05,069,,17,01,130,*75
$GPRMC,035713.460,A,4929.9446,N,00546.69,040619,,,A*67
$GPGGA,035715.000,4929.9442,N,00546.6962,E,1,4,2.48,372.3,M,47.6,M,,*52
$GPGSA,A,3,05,13,28,30,,,,,,,,,2.67,2.48,0.96*0E
$GPGS,1,12,13,83,319,46,28,57,098,45,15,47,296,43,05,33,195,46*77
$GPGSV,3,3,12,21,07,303,,20,07,327,,07,05,069,,17,01,130,*75
$GPR4929.9442,N,00546.6962,E,3.09,268.04,040619,,,A*62
$GPGGA,035716.000,4929.9443,N,00546.6948,E,1,4,2.48,372.3,M,47.6,M,,*58
$GPGSA,A,3,05,13,28,30,,,,,,,,,2.66,2.48,0.96*0F
$GPGS,1,12,13,83,319,46,28,57,098,31,15,47,296,35,05,33,195,46*75
$G3,067,39,37,31,159,,24,12,254,28,08,08,026,*70
$GPGSV,3,3,12,2127,,07,05,069,,17,01,130,*75
$GPRMC,035716.000,A,4929.9443,N,00288.52,040619,,,A*6A
$GPGGA,035717.000,4929.9444,N,00546.6935,E,1,4,2.48,372.3,M,47.6,M,,*54
$GPGSA,A,3,05,13,28,30,,,,,,,,,2.66,2.48,0.96*0F
$GPGS,1,12,13,83,319,46,28,57,098,30,15,47,296,25,05,33,195,47*74
$G3,067,40,37,31,159,,24,12,254,28,08,08,026,*7E
$GPGSV,3,3,12,2127,,07,05,069,,17,01,130,*75
$GPRMC,035717.000,A,4929.9444,N,00276.72,040619,,,A*63
$GPGGA,035718.000,4929.9445,N,00546.6912,E,1,4,2.49,372.3,M,47.6,M,,*5E
$GPGSA,A,3,05,13,28,30,,,,,,,,,2.67,2.49,0.96*0F
$GPGS,1,12,13,83,319,46,28,57,098,31,15,47,296,25,05,33,195,48*7A
$G3,067,41,37,31,159,,24,12,254,27,08,08,026,*70
$GPGSV,3,3,12,21,,17,01,130,*75
$GPRMC,035718.000,A,4929.9445,N,00546.6912,E,4.,,,A*60
$GPGGA,035719.000,4929.9444,N,00546.6893,E,1,4,2.48,372.3,M,47.6,M,,*57
$GPGSA,A,3,05,13,28,30,,,,,,,,,2.67,2.48,0.96*0E
$GPGS,1,12,13,83,319,46,28,57,098,31,15,47,296,37,05,33,195,49*78
$G3,067,39,37,31,159,,24,12,254,26,08,08,026,*7E
$GPGSV,3,3,12,2127,,07,05,069,,17,01,130,*75
$GPRMC,035719.000,A,4929.9444,N,00265.13,040619,,,A*63
$GPGGA,035720.000,4929.9444,N,00546.6872,E,1,4,2.49,372.3,M,47.6,M,,*53
$GPGSA,A,3,05,13,28,30,,,,,,,,,2.67,2.49,0.96*0F
$GPGS,1,12,13,83,319,46,28,57,098,40,15,47,296,44,05,33,195,50*72
$G3,067,28,37,31,159,,24,12,254,25,08,08,026,*7D
$GPGSV,3,3,12,2127,,07,05,069,,17,01,130,*75
$GPRMC,035720.000,A,4929.9444,N,00260.43,040619,,,A*63
$GPGGA,035721.000,4929.9442,N,00546.6853,E,1,4,2.49,372.3,M,47.6,M,,*57
$GPGSA,A,3,05,13,28,30,,,,,,,,,2.67,2.49,0.96*0F
$GPGS,1,12,13,83,319,46,28,57,098,40,15,47,296,44,05,33,195,41*72
$G3,067,27,37,31,159,,24,12,254,24,08,08,026,*73
$GPGSV,3,3,12,21,,17,01,130,*75
$GPRMC,035721.000,A,4929.9442,N,00546.6853,E,4.9,,,A*67
$GPGGA,035722.000,4929.9441,N,00546.6835,E,1,4,2.49,372.3,M,47.6,M,,*57
$GPGSA,A,3,05,13,28,30,,,,,,,,,2.67,2.49,0.96*0F
$GPGS,1,12,13,83,319,46,28,57,098,40,15,47,296,44,05,33,195,49*7A
$G3,067,29,37,31,159,,24,12,254,23,08,08,026,*7A
$GPGSV,3,3,12,2127,,07,05,069,,17,01,130,*75
$GPRMC,035722.000,A,4929.9441,N,00258.43,040619,,,A*6B
$GPGGA,035723.000,4929.9437,N,00546.6813,E,1,4,2.49,372.3,M,47.6,M,,*53
$GPGSA,A,3,05,13,28,30,,,,,,,,,2.67,2.49,0.96*0F
$GPGS319,46,28,57,098,38,15,47,296,43,05,33,195,49*72
$GPGSV,3,2,12,29,155,,24,12,254,22,08,08,026,*7F
$GPGSV,3,3,12,21,07,303,,20,9,,17,01,130,*75
$GPRMC,035723.000,A,4929.9437,N,00546.6813,E,59,,,A*6A
$GPGGA,035724.000,4929.9430,N,00546.6791,E,1,4,2.49,372.3,M,47.6,M,,*56
$GPGSA,A,3,05,13,28,30,,,,,,,,,2.67,2.49,0.96*0F
$GPGS,1,12,13,83,319,45,28,57,098,38,15,47,296,44,05,33,195,49*76
$G3,067,38,39,29,155,,24,12,254,20,08,08,026,*72
$GPGSV,3,3,12,21,,17,01,130,*75
$GPRMC,035724.000,A,4929.9430,N,00546.6791,E,5.9,,,A*6C
$GPGGA,035725.000,4929.9419,N,00546.6770,E,1,4,2.49,372.3,M,47.6,M,,*53
$GPGSA,A,3,05,13,28,30,,,,,,,,,2.67,2.49,0.96*0F
$GPGS,1,12,13,83,319,45,28,57,098,38,15,47,296,44,05,33,195,48*77
$G3,067,36,39,29,155,,24,12,254,19,08,08,026,*76
$GPGSV,3,3,12,2127,,07,05,069,,17,01,130,*75
$GPRMC,035725.000,A,4929.9419,N,00224.52,040619,,,A*67
$GPGGA,035726.000,4929.9404,N,00546.6751,E,1,4,2.49,372.2,M,47.6,M,,*5E
$GPGSA,A,3,05,13,28,30,,,,,,,,,2.67,2.49,0.96*0F
$GPGS19,45,28,57,098,48,15,47,296,44,05,33,195,48*70
$GPGSV,3,2,12,39,155,,24,12,254,19,08,08,026,*76
$GPGSV,3,3,12,21,07,303,,20,0,,17,01,130,*75
$GPRMC,035726.000,A,4929.9404,N,00546.6751,E,6.,,,A*61
$GPGGA,035727.000,4929.9385,N,00546.6738,E,1,4,2.49,372.1,M,47.6GPGSV,3,2,12,30,33,067,36,39,29,155,,24,12,254,20,08,08,026,*7C27,,07,05,069,,17,01,130,*75
$GPRMC,035727.000,A,4929.9385,N,00.95,040619,,,A*68
$GPGGA,035728.000,4929.9366,N,00546.6729,E,1,4,2.49,371.5,M,47.6,M,,*58
$GPGSA,A,3,05,13,28,30,,,,,,,,,2.67,2.49,0.96*0F
$GPGS83,319,45,28,57,098,48,15,47,296,45,05,33,195,40*79
$GPGSV,3,2,29,155,,24,12,254,29,08,08,026,*71
$GPGSV,3,3,12,21,07,303,,20,7,01,130,*75
$GPRMC,035728.000,A,4929.9366,N,00546.6729,E,6.37,
$GPGGA,035729.000,4929.9345,N,00546.6728,E,1,4,2.49,371.4,M,47.6,M,,*58
$GPGSA,A,3,05,13,28,30,,,,,,,,,2.67,2.49,0.96*0F
$GPGS83,319,45,28,57,097,49,15,47,296,43,05,33,195,39*7F
$GPGSV,3,2,29,155,,24,12,254,22,08,08,026,*7A
$GPGSV,3,3,12,21,07,303,,20,
$GPRMC,035729.000,A,4929.9345,N,00546.6728,E,8.33,182.52,040619$GPGGA,035730.000,4929.9320,N,00546.6733,E,1,4,2.49,371.3,M,47.6,M,,*5E
$GPGSA,A,3,05,13,28,30,,,,,,,,,2.67,2.49,0.96*0F
$GPGS3,83,319,45,28,57,097,49,15,47,296,34,05,33,195,39*7F
$GPGSV,3,29,155,,24,12,254,22,08,08,026,*7C
$GPGSV,3,3,12,21,07,303,,20,17,01,130,*75
$GPRMC,035730.000,A,4929.9320,N,00546.6733,E,8.74A
$GPGGA,035731.000,4929.9297,N,00546.6746,E,1,4,2.49,371.2,M,47.6,M,,*51
$GPGSA,A,3,05,13,28,30,,,,,,,,,2.67,2.49,0.96*0F
$GPGS57,097,47,15,47,296,36,05,33,195,39*73
$GPGSV,3,2,12,30,33,067,,254,34,08,08,026,*7B
$GPGSV,3,3,12,21,07,303,,20,07,327,,07,05
$GPRMC,035731.000,A,4929.9297,N,00546.6746,E,8.83,153.97,04061$GPGGA,035732.000,4929.9276,N,00546.6771,E,1,4,2.49,371.1,M,47.6,M,,*5A
$GPGSA,A,3,05,13,28,30,,,,,,,,,2.67,2.49,0.96*0F
$GPGS3,83,319,46,28,57,097,46,15,47,296,34,05,33,195,39*73
$GPGSV,3,29,207,,24,12,254,36,08,08,026,*7D
$GPGSV,3,3,12,21,07,303,,20,17,01,130,*75
$GPRMC,035732.000,A,4929.9276,N,00546.6771,E,8.99$GPGGA,035733.000,4929.9261,N,00546.6804,E,1,4,2.49,371.1,M,47.6,M,,*50
$GPGSA,A,3,05,13,28,30,,,,,,,,,2.67,2.49,0.96*0F
$GPGS,83,319,47,28,57,097,45,15,47,296,34,05,33,195,48*77
$GPGSV,3,229,207,,24,12,254,22,08,08,026,*79
$GPGSV,3,3,12,21,07,303,,20,30,*72
$GPRMC,035733.000,A,4929.9261,N,00546.6804,E,9.32,118.45$GPGGA,035734.000,4929.9251,N,00546.6844,E,1,4,2.49,371.2,M,47.6,M,,*53
$GPGSA,A,3,05,13,28,30,,,,,,,,,2.67,2.49,0.96*0F
$GPGS,83,319,47,28,57,097,45,15,47,296,25,05,33,195,48*77
$GPGSV,3,2254,21,08,08,026,*75
$GPGSV,3,3,12,21,07,303,,20,07,327,,07,05,
$GPRMC,035734.000,A,4929.9251,N,00546.6844,E,9.95,105.99,04061$GPGGA,035735.000,4929.9244,N,00546.6889,E,1,4,2.49,371.2,M,47.6,M,,*57
$GPGSA,A,3,05,13,28,30,,,,,,,,,2.67,2.49,0.96*0F
$GPGS83,319,48,28,57,097,43,15,47,296,41,05,33,195,40*74
$GPGSV,3,2,29,207,26,24,12,254,21,08,08,026,*70
$GPGSV,3,3,12,21,07,303,,218,17,01,130,*7C
$GPRMC,035735.000,A,4929.9244,N,00546.6889,E,1*6C
$GPGGA,035736.000,4929.9244,N,00546.6934,E,1,4,2.50,371.3,M,47.6,M,,*5A
$GPGSA,A,3,05,13,28,30,,,,,,,,,2.68,2.50,0.96*08
$GPGS83,319,48,28,57,097,42,15,47,296,42,05,33,195,41*77
$GPGSV,3,2,29,207,26,24,12,254,23,08,08,026,*70
$GPGSV,3,3,12,21,07,303,,218,17,01,130,*7C
$GPRMC,035736.000,A,4929.9244,N,00546.6934,E,1*6E
$GPGGA,035737.000,4929.9247,N,00546.6980,E,1,4,2.50,371.4,M,47.6,M,,*50
$GPGSA,A,3,05,13,28,30,,,,,,,,,2.68,2.50,0.96*08
$GPGS,83,319,48,28,57,097,42,15,47,296,41,05,33,195,42*77
$GPGSV,3,229,207,26,24,12,254,22,08,08,026,*77
$GPGSV,3,3,12,21,07,303,,27C
$GPRMC,035737.000,A,4929.9247,N,00546.6980,E,10.59,81.48,040$GPGGA,035738.000,4929.9252,N,00546.7025,E,1,4,2.50,371.4,M,47.6,M,,*5C
$GPGSA,A,3,05,13,28,30,,,,,,,,,2.68,2.50,0.96*08
$GPGS83,319,48,28,57,097,41,15,47,296,40,05,33,195,41*76
$GPGSV,3,2,29,207,24,24,12,254,23,08,08,026,*77
$GPGSV,3,3,12,21,07,303,,218,17,01,130,*7C
$GPRMC,035738.000,A,4929.9252,N,00546.7025,E,1*69
$GPGGA,035739.000,4929.9257,N,00546.7071,E,1,4,2.50,371.5,M,47.6,M,,*58
$GPGSA,A,3,05,13,28,30,,,,,,,,,2.68,2.50,0.96*08
$GPGS7,097,40,15,47,296,40,05,33,195,41*77
$GPGSV,3,2,12,30,33,067,4254,23,08,08,026,*70
$GPGSV,3,3,12,21,07,303,,20,07,327,,07,05,
$GPRMC,035739.000,A,4929.9257,N,00546.7071,E,11.01,82.48,04061$GPGGA,035740.000,4929.9261,N,00546.7119,E,1,5,1.85,371.6,M,47.6
$GPGSA,A,3,05,13,08,28,30,,,,,,,,2.04,1.85,0.86*00
$GPGSV,3,1,7,097,40,15,47,296,39,05,33,195,41*79
$GPGSV,3,2,12,30,33,067,4254,21,08,08,026,19*7A
$GPGSV,3,3,12,21,07,303,,20,07,327,,07,07C
$GPRMC,035740.000,A,4929.9261,N,00546.7119,E,11.12,82.92,040$GPGGA,035741.000,4929.9266,N,00546.7167,E,1,5,1.85,371.7,M,47.6,M,,*5B
$GPGSA,A,3,05,13,08,28,30,,,,,,,,2.04,1.85,0.86*00
$GP13,83,319,48,28,57,097,40,15,47,296,38,05,33,195,40*79
$GPGSV,34,12,254,21,40,11,115,,08,08,026,18*74
$GPGSV,3,3,12,21,07,303,,17,17,01,130,*73
$GPRMC,035741.000,A,4929.9266,N,00546.7167,E,,,A*6D
$GPGGA,035742.000,4929.9272,N,00546.7216,E,1,5,1.85,371.8,M,47.6,M,,*57
$GPGSA,A,3,05,13,08,28,30,,,,,,,,2.04,1.85,0.86*00
$GP,13,83,319,48,28,57,097,40,15,47,296,37,05,33,195,38*79
$GPGSV,0,11,115,,08,08,026,19*75
$GPGSV,3,3,12,21,07,303,,20,07,327,,0,*73
$GPRMC,035742.000,A,4929.9272,N,00546.7216,E,11.58,81.60,0$GPGGA,035743.000,4929.9277,N,00546.7268,E,1,5,1.85,371.9,M,47.6,M,,*5B
$GPGSA,A,3,05,13,08,28,30,,,,,,,,2.04,1.85,0.86*00
$GP9,48,28,57,097,40,15,47,296,37,05,33,195,39*78
$GPGSV,3,2,12,30,22,40,11,115,,08,08,026,21*7D
$GPGSV,3,3,12,21,07,303,,20,07,31,130,*72
$GPRMC,035743.000,A,4929.9277,N,00546.7268,E,12.32,81$GPGGA,035744.000,4929.9284,N,00546.7322,E,1,5,1.85,372.0,M,47.6,M,,*55
$GPGSA,A,3,05,13,08,28,30,,,,,,,,2.04,1.85,0.86*00
$GP83,319,48,28,57,097,40,15,47,296,38,05,33,195,38*76
$GPGSV,3,2,12,254,22,40,11,115,,08,08,026,21*7D
$GPGSV,3,3,12,21,07,303,,217,17,01,130,*72
$GPRMC,035744.000,A,4929.9284,N,00546.7322,E,1*69
$GPGGA,035745.000,4929.9290,N,00546.7380,E,1,5,1.85,372.1,M,47.6,M,,*58
$GPGSA,A,3,05,13,08,28,30,,,,,,,,2.04,1.85,0.86*00
$GP,83,319,48,28,57,097,40,15,47,296,39,05,33,195,37*78
$GPGSV,3,22,254,22,40,11,115,,08,08,026,20*7C
$GPGSV,3,3,12,21,07,303,,202
$GPRMC,035745.000,A,4929.9290,N,00546.7380,E,13.85,80.60,0406$GPGGA,035746.000,4929.9295,N,00546.7440,E,1,5,1.85,372.2,M,47.6,M,,*56
$GPGSA,A,3,05,13,08,28,30,,,,,,,,2.04,1.85,0.86*00
$GP12,30,33,067,39,24,12,254,22,40,11,115,,08,08,026,20*72
$GPGSV,84.96,040619,,,A*65
$GPGGA,035747.000,4929.9300,N,00546.7496,E,1,5,1.85,372.3,M,47.6A,A,3,05,13,08,28,30,,,,,,,,2.04,1.85,0.86*00
$GPGSV,3,1,12,13,,40,15,47,296,39,05,33,195,28*79
$GPGSV,3,2,12,30,33,067,38,24,,,08,08,026,20*75
$GPGSV,3,3,12,21,07,303,,20,07,327,,07,04,069000,A,4929.9300,N,00546.7496,E,12.89,83.41,040619,,,A*6D
$GPGGA,035748.000,4929.9303,N,00546.7545,E,1,5,1.85,372.4,M,47.6,M,,*54
$GPGSA,A,3,05,13,08,28,30,,,,,,,,2.04,1.85,0.86*00
$GP,83,319,46,28,57,097,40,15,47,296,38,05,33,195,26*77
$GPGSV,3,2,12,254,25,40,11,115,,08,08,026,19*7F
$GPGSV,3,3,12,21,07,303,,,15,17,01,130,*70
$GPRMC,035748.000,A,4929.9303,N,00546.7545,E,A*6B
$GPGGA,035749.000,4929.9308,N,00546.7581,E,1,5,1.85,372.4,M,47.6,M,,*56
$GPGSA,A,3,05,13,08,28,30,,,,,,,,2.04,1.85,0.86*00
$GP,57,097,40,15,47,296,45,05,33,195,27*76
$GPGSV,3,2,12,30,33,067,11,115,,08,08,026,19*7E
$GPGSV,3,3,12,21,07,303,,20,07,327,,07,*70
$GPRMC,035749.000,A,4929.9308,N,00546.7581,E,7.43,80.94,04$GPGGA,035750.000,4929.9316,N,00546.7606,E,1,4,2.31,372.5,M,47.6,M,,*51
$GPGSA,A,3,05,13,08,28,,,,,,,,,2.47,2.31,0.86*08
$GPGS3,320,46,28,57,097,40,15,47,296,47,05,33,195,29*7A
$GPGSV,3,2,12,254,31,40,11,115,,08,08,026,18*7A
$GPGSV,3,3,12,21,07,303,,2016,17,01,130,*73
$GPRMC,035750.000,A,4929.9316,N,00546.7606,E,6$GPGGA,035751.000,4929.9329,N,00546.7622,E,1,5,1.85,372.6,M,47.6,M,,*54
$GPGSA,A,3,05,13,08,28,30,,,,,,,,2.04,1.85,0.86*00
$GP,13,83,320,47,28,57,097,41,15,47,296,46,05,33,195,30*73
$GPGSV,4,12,254,33,44,10,113,,08,08,026,17*7F
$GPGSV,3,3,12,21,07,303,69,16,17,01,130,*73
$GPRMC,035751.000,A,4929.9329,N,00546.7622,,,A*52
$GPGGA,035752.000,4929.9365,N,00546.7618,E,1,5,1.85,372.6,M,47.6,M,,*56
$GPGSA,A,3,05,13,08,28,30,,,,,,,,2.04,1.85,0.86*00
$GP3,83,320,47,28,57,097,42,15,47,296,36,05,33,195,32*75
$GPGSV,3,10,113,,08,08,026,16*7E
$GPGSV,3,3,12,21,07,303,,20,07,327,,07,,*73
$GPRMC,035752.000,A,4929.9365,N,00546.7618,E,8.34,351.65,0$GPGGA,035753.000,4929.9392,N,00546.7612,E,1,5,1.85,372.7,M,47.6,M,,*54
$GPGSA,A,3,05,13,08,28,30,,,,,,,,2.05,1.85,0.86*01
$GP28,15,47,296,36,05,33,195,41*7D
$GPGSV,3,2,12,30,33,067,25,24,18,08,026,15*7C
$GPGSV,3,3,12,21,07,303,,20,07,327,,07,04,069,16RMC,035753.000,A,4929.9392,N,00546.7612,E,8.83,350.12,040619,,,A$GPGGA,035754.000,4929.9420,N,00546.7605,E,1,5,1.85,372.8,M,47.6,M,,*54
$GPGSA,A,3,05,13,08,28,30,,,,,,,,2.04,1.85,0.86*00
$GP3,83,320,46,28,57,097,29,15,47,296,38,05,33,195,40*72
$GPGSV,3,4,12,254,23,44,10,113,,08,08,026,15*7A
$GPGSV,3,3,12,21,07,303,9,16,17,01,130,*73
$GPRMC,035754.000,A,4929.9420,N,00546.7605,E,A*6E
$GPGGA,035755.000,4929.9451,N,00546.7594,E,1,5,1.85,372.9,M,47.6,M,,*59
$GPGSA,A,3,05,13,08,28,30,,,,,,,,2.04,1.85,0.86*00
$GP13,83,320,46,28,57,097,40,15,47,296,47,05,33,195,38*7A
$GPGSV,3,10,113,,08,08,026,15*71
$GPGSV,3,3,12,21,07,303,18,20,07,327,,30,*7A
$GPRMC,035755.000,A,4929.9451,N,00546.7594,E,10.82,348.2$GPGGA,035756.000,4929.9482,N,00546.7582,E,1,5,1.85,373.0,M,47.6,M,,*5B
$GPGSA,A,3,05,13,08,28,30,,,,,,,,2.04,1.85,0.86*00
$GP,83,320,46,28,57,097,41,15,47,296,48,05,33,195,27*7A
$GPGSV,3,2,12,254,25,44,10,113,,08,08,026,15*70
$GPGSV,3,3,12,21,07,303,169,16,17,01,130,*74
$GPRMC,035756.000,A,4929.9482,N,00546.7582,9,,,A*58
$GPGGA,035757.000,4929.9515,N,00546.7570,E,1,5,1.85,373.0,M,47.6,M,,*58
$GPGSA,A,3,05,13,08,28,30,,,,,,,,2.04,1.85,0.86*00
$GP3,83,320,47,28,57,097,27,15,47,296,31,05,33,195,28*7A
$GPGSV,3,4,12,254,38,44,10,113,,08,08,026,14*75
$GPGSV,3,3,12,21,07,303,069,16,17,01,130,*76
$GPRMC,035757.000,A,4929.9515,N,00546.75709,,,A*5D
$GPGGA,035758.000,4929.9556,N,00546.7558,E,1,5,1.85,373.2,M,47.6,M,,*58
$GPGSA,A,3,05,13,08,28,30,,,,,,,,2.04,1.85,0.86*00
$GP13,83,320,47,28,57,097,44,15,47,296,32,05,33,195,37*72
$GPGSV,34,12,254,21,44,10,113,,08,08,026,17*70
$GPGSV,3,3,12,21,07,303,30,*74
$GPRMC,035758.000,A,4929.9556,N,00546.7558,E,14.02,350.9$GPGGA,035759.000,4929.9595,N,00546.7551,E,1,5,1.85,373.2,M,47.6,M,,*5F
$GPGSA,A,3,05,13,08,28,30,,,,,,,,2.05,1.85,0.86*01
$GP3,83,320,47,28,57,097,43,15,47,296,50,05,33,195,26*71
$GPGSV,3,4,37,44,10,113,,08,08,026,15*7D
$GPGSV,3,3,12,21,07,303,18,20,017,01,130,*7B
$GPRMC,035759.000,A,4929.9595,N,00546.7551,E,14.6E
$GPGGA,035800.000,4929.9646,N,00546.7545,E,1,5,1.85,373.3,M,47.6,M,,*55
$GPGSA,A,3,05,13,08,28,30,,,,,,,,2.04,1.85,0.86*00
$GP,57,097,42,15,47,296,50,05,33,195,39*7E
$GPGSV,3,2,12,30,33,0672,254,36,08,08,026,13*74
$GPGSV,3,3,12,21,07,303,17,20,07,327,,30,*74
$GPRMC,035800.000,A,4929.9646,N,00546.7545,E,15.84,357.2$GPGGA,035801.000,4929.9695,N,00546.7542,E,1,5,1.85,373.4,M,47.6,M,,*5A
$GPGSA,A,3,05,13,08,28,30,,,,,,,,2.04,1.85,0.86*00
$GP3,83,320,47,28,57,097,43,15,47,296,49,05,33,195,39*77
$GPGSV,3,7,31,159,,24,12,254,26,08,08,026,13*77
$GPGSV,3,3,12,21,07,303,069,16,17,01,130,*75
$GPRMC,035801.000,A,4929.9695,N,00546.7542$GPGGA,035802.000,4929.9741,N,00546.7539,E,1,5,1.85,373.3,M,47.6,M,,*5A
$GPGSA,A,3,05,13,08,28,30,,,,,,,,2.04,1.85,0.86*00
$GP,13,83,320,47,28,57,097,43,15,47,296,50,05,33,195,40*71
$GPGSV,7,31,159,,24,12,254,25,08,08,026,13*77
$GPGSV,3,3,12,21,07,303,,069,15,17,01,130,*77
$GPRMC,035802.000,A,4929.9741,N,00546.753619,,,A*52
$GPGGA,035803.000,4929.9789,N,00546.7535,E,1,5,1.85,373.3,M,47.6,M,,*53
$GPGSA,A,3,05,13,08,28,30,,,,,,,,2.04,1.85,0.86*00
$GP3,83,320,47,28,57,097,43,15,47,296,50,05,33,195,40*71
$GPGSV,3,,254,18,08,08,026,15*7C
$GPGSV,3,3,12,21,07,303,16,20,07,327,,030,*76
$GPRMC,035803.000,A,4929.9789,N,00546.7535,E,15.81,359.2$GPGGA,035804.000,4929.9835,N,00546.7531,E,1,5,1.89,373.4,M,47.6,M,,*53
$GPGSA,A,3,05,13,08,28,30,,,,,,,,2.55,1.89,1.71*01
$GP,13,83,320,47,28,57,097,43,15,47,296,50,05,33,195,40*71
$GPGSV,7,31,159,,24,12,254,18,08,08,026,17*7E
$GPGSV,3,3,12,21,07,303,,069,14,17,01,130,*76
$GPRMC,035804.000,A,4929.9835,N,00546.753619,,,A*59
$GPGGA,035805.000,4929.9880,N,00546.7525,E,1,4,2.35,373.5,M,47.6,M,,*5D
$GPGSA,A,3,05,13,08,28,,,,,,,,,2.91,2.35,1.71*0E
$GPGS3,83,320,47,28,57,097,43,15,47,296,50,05,33,195,40*71
$GPGSV,3,31,159,,24,12,254,19,08,08,026,17*78
$GPGSV,3,3,12,21,07,303,159,15,17,01,130,*74
$GPRMC,035805.000,A,4929.9880,N,00546.7525,E$GPGGA,035806.000,4929.9925,N,00546.7515,E,1,5,1.89,373.8,M,47.6,33,067,31,37,31,159,,24,12,254,26,08,08,026,18*7F
$GPGSV,3,3,1,07,04,069,23,17,01,130,*71
$GPRMC,035806.000,A,4929.9925,N,005.24,040619,,,A*5A
$GPGGA,035807.000,4929.9967,N,00546.7494,E,1,5,1.89,374.2,M,47.6,M,,*59
$GPGSA,A,3,05,13,08,28,30,,,,,,,,2.55,1.89,1.71*01
$GP2,13,83,320,47,28,57,097,43,15,47,296,49,05,33,195,32*7C
$GPGSV48,37,31,159,,24,12,254,17,08,08,026,18*73
$GPGSV,3,3,12,21,07,07,04,069,22,17,01,130,*73
$GPRMC,035807.000,A,4929.9967,N,00545,040619,,,A*5D
$GPGGA,035808.000,4930.0008,N,00546.7474,E,1,5,1.89,375.0,M,47.6,M,,*5A
$GPGSA,A,3,05,13,08,28,30,,,,,,,,2.55,1.89,1.71*01
$GP2,13,83,320,47,28,57,097,44,15,47,296,49,05,33,195,31*78
$GPGSV,12,254,17,08,08,026,17*7C
$GPGSV,3,3,12,21,07,303,16,20,07,32701,130,*70
$GPRMC,035808.000,A,4930.0008,N,00546.7474,E,16.07,3E
$GPGGA,035809.000,4930.0050,N,00546.7453,E,1,5,1.85,375.4,M,47.6,M,,*5B
$GPGSA,A,3,05,13,08,28,30,,,,,,,,2.04,1.85,0.86*00
$GP13,83,320,46,28,57,097,44,15,47,296,49,05,33,195,32*7A
$GPGSV,3,39,29,155,,24,12,254,29,08,08,026,14*79
$GPGSV,3,3,12,21,07,30,04,069,20,17,01,130,*71
$GPRMC,035809.000,A,4930.0050,N,00546.040619,,,A*59
$GPGGA,035810.000,4930.0092,N,00546.7433,E,1,5,1.85,375.7,M,47.6,M,,*58
$GPGSA,A,3,05,13,08,28,30,,,,,,,,2.04,1.85,0.86*00
$GP2,13,83,320,46,28,57,097,43,15,47,296,49,05,33,195,34*7B
$GPGSV,39,29,155,,24,12,254,39,08,08,026,14*73
$GPGSV,3,3,12,21,07,30,04,069,19,17,01,130,*7B
$GPRMC,035810.000,A,4930.0092,N,00546.7,040619,,,A*59
$GPGGA,035811.000,4930.0131,N,00546.7414,E,1,5,1.85,375.9,M,47.6,M,,*5A
$GPGSA,A,3,05,13,08,28,30,,,,,,,,2.04,1.85,0.86*00
$GP13,83,320,46,28,57,097,43,15,47,296,49,05,33,195,42*7A
$GPGSV,3,39,29,155,,24,12,254,21,08,08,026,14*71
$GPGSV,3,3,12,21,07,30,130,17*7D
$GPRMC,035811.000,A,4930.0131,N,00546.7414,E,15.51,30
$GPGGA,035812.000,4930.0170,N,00546.7394,E,1,5,1.85,376.2,M,47.6,M,,*5B
$GPGSA,A,3,05,13,08,28,30,,,,,,,,2.05,1.85,0.86*01
$GP2,13,83,320,46,28,57,097,42,15,47,296,49,05,33,195,42*7B
$GPGSV,39,29,155,,24,12,254,20,08,08,026,13*77
$GPGSV,3,3,12,21,07,30,04,069,19,17,01,130,14*70
$GPRMC,035812.000,A,4930.0170,N,0054.98,040619,,,A*5C
$GPGGA,035813.000,4930.0211,N,00546.7375,E,1,5,1.85,376.5,M,47.6,M,,*56
$GPGSA,A,3,05,13,08,28,30,,,,,,,,2.04,1.85,0.86*00
$GP,13,83,320,46,28,57,097,42,15,47,296,49,05,33,195,42*7B
$GPGSV,0,39,29,155,,24,12,254,20,08,08,026,13*78
$GPGSV,3,3,12,21,07,304,069,18,17,01,130,10*74
$GPRMC,035813.000,A,4930.0211,N,0054603,040619,,,A*53
$GPGGA,035814.000,4930.0252,N,00546.7354,E,1,5,1.85,376.9,M,47.6,M,,*59
$GPGSA,A,3,05,13,08,28,30,,,,,,,,2.04,1.85,0.86*00
$GP,12,13,83,320,47,28,57,097,40,15,47,296,49,05,33,195,41*7B
$GPG30,39,29,155,,24,12,254,22,08,08,026,13*7A
$GPGSV,3,3,12,21,07,7,01,130,11*7B
$GPRMC,035814.000,A,4930.0252,N,00546.7354,E,15.*54
$GPGGA,035815.000,4930.0291,N,00546.7335,E,1,5,1.85,377.2,M,47.6,M,,*5A
$GPGSA,A,3,05,13,08,28,30,,,,,,,,2.04,1.85,0.86*00
$GP,13,83,320,47,28,57,097,40,15,47,296,50,05,33,195,39*7C
$GPGSV,3,39,29,155,,24,12,254,37,08,08,026,13*7C
$GPGSV,3,3,12,21,07,37,04,069,15,17,01,130,10*7A
$GPRMC,035815.000,A,4930.0291,N,0051.75,040619,,,A*5C
$GPGGA,035816.000,4930.0326,N,00546.7325,E,1,5,1.85,377.5,M,47.6,M,,*52
$GPGSA,A,3,05,13,08,28,30,,,,,,,,2.04,1.85,0.86*00
$GP,28,57,097,41,15,47,296,50,05,33,195,27*72
$GPGSV,3,2,12,30,33,24,12,254,21,08,08,026,15*7B
$GPGSV,3,3,12,21,07,303,18,20,07,3,17,01,130,13*7D
$GPRMC,035816.000,A,4930.0326,N,00546.7325,E,1,A*5C
$GPGGA,035817.000,4930.0356,N,00546.7310,E,1,5,1.89,377.8,M,47.6,M,,*53
$GPGSA,A,3,05,13,08,28,30,,,,,,,,2.55,1.89,1.71*01
$GP2,13,83,320,48,28,57,097,41,15,47,296,50,05,33,195,36*7D
$GPGSV7,39,29,155,,24,12,254,21,08,08,026,13*7F
$GPGSV,3,3,12,21,07,30,12*7C
$GPRMC,035817.000,A,4930.0356,N,00546.7310,E,11.59,344.$GPGGA,035818.000,4930.0375,N,00546.7294,E,1,5,1.85,378.1,M,47.6,M,,*5A
$GPGSA,A,3,05,13,08,28,30,,,,,,,,2.04,1.85,0.86*00
$GP,12,13,83,320,47,28,57,097,41,15,47,296,50,05,33,195,37*73
$GPG27,39,29,155,,24,12,254,38,08,08,026,14*70
$GPGSV,3,3,12,21,07,,17,01,130,11*7E
$GPRMC,035818.000,A,4930.0375,N,00546.7294,E,8,,A*62
$GPGGA,035819.000,4930.0386,N,00546.7264,E,1,5,1.85,378.5,M,47.6,M,,*5C
$GPGSA,A,3,05,13,08,28,30,,,,,,,,2.04,1.85,0.86*00
$GP1,33,29,207,,24,12,254,38,08,08,026,13*79
$GPGSV,3,3,12,21,07,3,07,04,069,14,17,01,130,11*75
$GPRMC,035819.000,A,4930.0386,N,099.38,040619,,,A*6E
$GPGGA,035820.000,4930.0388,N,00546.7230,E,1,4,2.52,378.9,M,47.6,M,,*5D
$GPGSA,A,3,05,13,28,30,,,,,,,,,2.70,2.52,0.96*03
$GPGS13,83,320,45,28,57,097,31,15,47,296,29,05,33,195,45*7D
$GPGSV,3,33,29,207,,24,12,254,37,08,08,026,18*7E
$GPGSV,3,3,12,21,07,3007,04,069,14,17,01,130,12*76
$GPRMC,035820.000,A,4930.0388,N,0015,040619,,,A*6F
$GPGGA,035821.000,4930.0382,N,00546.7193,E,1,4,2.52,379.2,M,47.6,M,,*56
$GPGSA,A,3,05,13,28,30,,,,,,,,,2.70,2.52,0.96*03
$GPGS2,13,83,320,44,28,57,097,32,15,47,296,44,05,33,195,47*76
$GPGSV,33,29,207,,24,12,254,30,08,08,026,19*7A
$GPGSV,3,3,12,21,07,3007,04,069,14,17,01,130,13*7B
$GPRMC,035821.000,A,4930.0382,N,0053.61,040619,,,A*57
$GPGGA,035822.000,4930.0372,N,00546.7153,E,1,4,2.52,379.5,M,47.6,M,,*51
$GPGSA,A,3,05,13,28,30,,,,,,,,,2.70,2.52,0.96*03
$GPGS13,83,320,44,28,57,097,42,15,47,296,44,05,33,195,48*7E
$GPGSV,34,12,254,30,08,08,026,17*77
$GPGSV,3,3,12,21,07,303,21,20,07,32,01,130,13*76
$GPRMC,035822.000,A,4930.0372,N,00546.7153,E,11.1A*5C
$GPGGA,035823.000,4930.0362,N,00546.7105,E,1,4,2.52,379.9,M,47.6,M,,*5E
$GPGSA,A,3,05,13,28,30,,,,,,,,,2.70,2.52,0.96*03
$GPGS2,13,83,320,44,28,57,097,42,15,47,296,44,05,33,195,48*7E
$GPGSV,33,29,207,,24,12,254,29,08,08,026,17*7F
$GPGSV,3,3,12,21,07,3007,04,069,14,17,01,130,*74
$GPRMC,035823.000,A,4930.0362,N,0054.52,040619,,,A*54
$GPGGA,035824.000,4930.0353,N,00546.7053,E,1,4,2.53,380.1,M,47.6,M,,*56
$GPGSA,A,3,05,13,28,30,,,,,,,,,2.70,2.53,0.96*02
$GPGS13,84,321,44,28,57,097,42,15,47,296,44,05,33,195,48*78
$GPGSV,3,33,29,207,,24,12,254,28,08,08,026,18*71
$GPGSV,3,3,12,21,07,30,04,069,14,17,01,130,*71
$GPRMC,035824.000,A,4930.0353,N,00546.6,040619,,,A*57
$GPGGA,035825.000,4930.0345,N,00546.6998,E,1,4,2.53,380.4,M,47.6,M,,*5A
$GPGSA,A,3,05,13,28,30,,,,,,,,,2.70,2.53,0.96*02
$GPGS2,13,84,321,45,28,57,097,42,15,47,296,44,05,33,195,48*79
$GPGSV,33,29,207,,24,12,254,28,08,08,026,17*7D
$GPGSV,3,3,12,21,07,307,01,130,*7A
$GPRMC,035825.000,A,4930.0345,N,00546.6998,E,13.53
$GPGGA,035826.000,4930.0339,N,00546.6942,E,1,4,2.53,380.7,M,47.6,M,,*56
$GPGSA,A,3,05,13,28,30,,,,,,,,,2.70,2.53,0.96*02
$GPGS13,84,321,45,28,57,097,41,15,48,296,44,05,33,195,49*74
$GPGSV,3,33,29,207,,24,12,254,28,08,08,026,19*72
$GPGSV,3,3,12,21,07,30,04,069,14,17,01,130,*7B
$GPRMC,035826.000,A,4930.0339,N,00546.4,040619,,,A*52
$GPGGA,035827.000,4930.0334,N,00546.6891,E,1,4,2.53,380.9,M,47.6,M,,*5B
$GPGSA,A,3,05,13,28,30,,,,,,,,,2.71,2.53,0.96*03
$GPGS13,84,321,45,28,57,097,40,15,48,296,43,05,33,195,49*72
$GPGSV,3,33,29,207,,24,12,254,27,08,08,026,20*79
$GPGSV,3,3,12,21,07,3007,04,069,14,17,01,130,*78
$GPRMC,035827.000,A,4930.0334,N,00541,040619,,,A*5D
$GPGGA,035828.000,4930.0330,N,00546.6847,E,1,4,2.53,381.2,M,47.6,M,,*51
$GPGSA,A,3,05,13,28,30,,,,,,,,,2.71,2.53,0.96*03
$GPGS13,84,321,45,28,57,097,38,15,48,296,43,05,33,195,49*7D
$GPGSV,3,33,29,207,,24,12,254,28,08,08,026,23*75
$GPGSV,3,3,12,21,07,307E
$GPRMC,035828.000,A,4930.0330,N,00546.6847,E,10.41,264.50,04$GPGGA,035829.000,4930.0328,N,00546.6806,E,1,4,2.53,381.5,M,47.6,M,,*5B
$GPGSA,A,3,05,13,28,30,,,,,,,,,2.71,2.53,0.96*03
$GPGS2,13,84,321,45,28,57,097,30,15,48,296,43,05,33,195,49*75
$GPGSV,24,12,254,27,40,11,115,,08,08,026,28*7E
$GPGSV,3,3,12,21,07,3007,04,069,14,17,01,130,17*7E
$GPRMC,035829.000,A,4930.0328,N,006.38,040619,,,A*68
$GPGGA,035830.000,4930.0327,N,00546.6763,E,1,4,2.53,381.8,M,47.6,M,,*5D
$GPGSA,A,3,05,13,28,30,,,,,,,,,2.70,2.53,0.96*02
$GPGS8,57,097,30,15,48,296,42,05,33,195,49*74
$GPGSV,3,2,12,30,33,0640,11,115,,08,08,026,28*7F
$GPGSV,3,3,12,21,07,303,18,20,07,32701,130,17*77
$GPRMC,035830.000,A,4930.0327,N,00546.6763,E,10.76*59
$GPGGA,035831.000,4930.0326,N,00546.6711,E,1,4,2.53,382.1,M,47.6,M,,*52
$GPGSA,A,3,05,13,28,30,,,,,,,,,2.71,2.53,0.96*03
$GPGS2,13,84,321,45,28,57,097,31,15,48,296,41,05,33,195,49*76
$GPGSV24,12,254,25,40,11,115,,08,08,026,24*71
$GPGSV,3,3,12,21,07,3037,04,069,14,17,01,130,17*78
$GPRMC,035831.000,A,4930.0326,N,005$GPGGA,035832.000,4930.0326,N,00546.6650,E,1,4,2.53,382.4,M,47.6,M,,*50
$GPGSA,A,3,05,13,28,30,,,,,,,,,2.71,2.53,0.96*03
$GPGS2,13,84,321,45,28,57,097,31,15,48,296,39,05,33,195,49*79
$GPGSV,24,12,254,25,40,11,115,,08,08,026,22*79
$GPGSV,3,3,12,21,07,3007,04,069,14,17,01,130,16*73
$GPRMC,035832.000,A,4930.0326,N,007.48,040619,,,A*52
$GPGGA,035833.000,4930.0324,N,00546.6580,E,1,4,2.53,382.6,M,47.6,M,,*5F
$GPGSA,A,3,05,13,28,30,,,,,,,,,2.71,2.53,0.96*03
$GPGS,57,097,31,15,48,296,38,05,33,195,49*78
$GPGSV,3,2,12,30,33,0670,11,115,,08,08,026,21*7B
$GPGSV,3,3,12,21,07,302,22,20,07,326,1,130,15*7C
$GPRMC,035833.000,A,4930.0324,N,00546.6580,E,17.49,51
$GPGGA,035834.000,4930.0320,N,00546.6509,E,1,4,2.53,383.0,M,47.6,M,,*5A
$GPGSA,A,3,05,13,28,30,,,,,,,,,2.71,2.53,0.96*03
$GPGS13,84,321,45,28,57,097,32,15,48,296,39,05,33,195,49*7A
$GPGSV,34,12,254,26,40,11,115,,08,08,026,23*75
$GPGSV,3,3,12,21,07,302,,04,069,14,17,01,130,16*72
$GPRMC,035834.000,A,4930.0320,N,005458
$GPGGA,035835.000,4930.0315,N,00546.6438,E,1,4,2.53,383.4,M,47.6,M,,*5A
$GPGSA,A,3,05,13,28,30,,,,,,,,,2.71,2.53,0.96*03
$GPGS,84,321,45,28,57,097,31,15,48,296,39,05,33,195,49*79
$GPGSV,3,24,13,254,28,40,11,115,,08,08,026,24*7D
$GPGSV,3,3,12,21,07,302,4,069,14,17,01,130,16*74
$GPRMC,035835.000,A,4930.0315,N,00546.2,040619,,,A*53
$GPGGA,035836.000,4930.0310,N,00546.6371,E,1,4,2.53,383.7,M,47.6,M,,*55
$GPGSA,A,3,05,13,28,30,,,,,,,,,2.71,2.53,0.96*03
$GPGS13,84,321,45,28,57,097,24,15,48,296,40,05,33,195,49*73
$GPGSV,3,11,115,,08,08,026,23*75
$GPGSV,3,3,12,21,07,302,21,20,07,326,301,130,16*79
$GPRMC,035836.000,A,4930.0310,N,00546.6371,E,15.773
$GPGGA,035837.000,4930.0308,N,00546.6304,E,1,4,2.53,384.0,M,47.6,M,,*5F
$GPGSA,A,3,05,13,28,30,,,,,,,,,2.71,2.53,0.96*03
$GPGS,84,321,45,28,57,097,24,15,48,296,40,05,33,195,49*73
$GPGSV,3,24,13,254,29,40,11,115,,08,08,026,22*75
$GPGSV,3,3,12,21,07,302,4,069,13,17,01,130,17*70
$GPRMC,035837.000,A,4930.0308,N,00546.3,040619,,,A*53
$GPGGA,035838.000,4930.0306,N,00546.6237,E,1,4,2.54,384.4,M,47.6,M,,*5C
$GPGSA,A,3,05,13,28,30,,,,,,,,,2.71,2.54,0.96*04
$GPGS3,84,321,45,28,57,097,26,15,48,296,40,05,33,195,49*71
$GPGSV,3,24,13,254,28,44,10,113,,08,08,026,23*76
$GPGSV,3,3,12,21,07,3027,04,069,13,17,01,130,17*70
$GPRMC,035838.000,A,4930.0306,N,00541,040619,,,A*55
$GPGGA,035839.000,4930.0305,N,00546.6172,E,1,4,2.54,384.7,M,47.6,,,,,2.71,2.54,0.96*04
$GPGSV,3,1,12,13,84,321,45,28,57,096,26,,33,195,48*7F
$GPGSV,3,2,12,30,33,067,42,24,13,254,26,44,10,1133,12,21,07,302,20,20,07,326,20,07,04,069,14,17,01,130,17*77
$GP,4930.0305,N,00546.6172,E,15.15,270.03,040619,,,A*5B
$GPGGA,035840.000,4930.0306,N,00546.6110,E,1,4,2.54,385.1,M,47.6,M,,*51
$GPGSA,A,3,05,13,28,30,,,,,,,,,2.71,2.54,0.96*04
$GPGS,1,12,13,84,321,45,28,57,096,27,15,48,296,37,05,33,195,48*70
$G3,067,42,24,13,254,26,44,10,113,,08,08,026,23*7B
$GPGSV,3,3,12,07,326,20,07,04,069,15,17,01,130,17*72
$GPRMC,035840.000,A,493010,E,14.86,274.86,040619,,,A*50
$GPGGA,035841.000,4930.0311,N,00546.6048,E,1,5,1.86,385.4,M,47.6,M,,*52
$GPGSA,A,3,05,13,08,28,30,,,,,,,,2.05,1.86,0.86*02
$GP,3,1,12,13,84,321,45,28,57,096,29,15,48,296,38,05,33,195,39*77
,33,067,35,24,13,254,24,44,10,113,,08,08,026,22*78
$GPGSV,3,3,10,07,326,20,07,04,069,15,17,01,130,16*70
$GPRMC,035841.000,A,496048,E,14.14,277.50,040619,,,A*58
$GPGGA,035842.000,4930.0329,N,00546.5988,E,1,5,1.85,385.5,M,47.6,M,,*5E
$GPGSA,A,3,05,13,08,28,30,,,,,,,,2.05,1.85,0.86*01
$GP,3,1,12,13,84,321,45,28,57,096,31,15,48,296,40,05,33,195,39*71
,33,067,34,24,13,254,36,44,10,113,,08,08,026,24*7C
$GPGSV,3,3,17,04,069,15,17,01,130,17*77
$GPRMC,035842.000,A,4930.0329,N,005296.84,040619,,,A*55
$GPGGA,035843.000,4930.0354,N,00546.5928,E,1,5,1.85,385.6,M,47.6,M,,*5C
$GPGSA,A,3,05,13,08,28,30,,,,,,,,2.05,1.85,0.86*01
$GP,3,1,12,13,84,321,45,28,57,096,33,15,48,296,42,05,33,195,39*71
,33,067,43,24,13,254,29,44,10,113,,08,08,026,24*72
$GPGSV,3,3,10,07,326,32,07,04,069,15,17,01,130,17*74
$GPRMC,035843.000,A,495928,E,16.35,304.36,040619,,,A*53
$GPGGA,035844.000,4930.0383,N,00546.5871,E,1,4,2.54,385.8,M,47.6,M,,*5C
$GPGSA,A,3,05,13,28,30,,,,,,,,,2.72,2.54,0.96*07
$GPGS,1,12,13,84,321,44,28,57,096,32,15,48,296,43,05,33,195,47*79
$G3,067,42,24,13,254,40,44,10,113,,08,08,026,23*7B
$GPGSV,3,3,12,,07,326,20,07,04,069,15,17,01,130,17*76
$GPRMC,035844.000,A,493871,E,16.57,309.30,040619,,,A*5C
$GPGGA,035845.000,4930.0415,N,00546.5814,E,1,4,2.54,385.8,M,47.6,M,,*56
$GPGSA,A,3,05,13,28,30,,,,,,,,,2.71,2.54,0.96*04
$GPGS,1,12,13,84,321,44,28,57,096,33,15,48,296,44,05,33,195,47*7F
$G3,254,28,44,10,113,,08,08,026,22*74
$GPGSV,3,3,12,21,07,302,20,04,069,15,17,01,130,16*7D
$GPRMC,035845.000,A,4930.0415,N,005462.56,040619,,,A*53
$GPGGA,035846.000,4930.0450,N,00546.5756,E,1,5,1.86,385.6,M,47.6,M,,*5E
$GPGSA,A,3,05,13,08,28,30,,,,,,,,2.05,1.86,0.86*02
$GP,3,1,12,13,84,321,44,28,57,096,34,15,48,296,45,05,33,195,47*79
,33,067,41,24,13,254,26,44,10,113,,08,08,026,24*7F
$GPGSV,3,3,10,07,326,18,07,04,069,16,17,01,130,15*7C
$GPRMC,035846.000,A,495756,E,16.97,313.49,040619,,,A*54
$GPGGA,035847.000,4930.0489,N,00546.5692,E,1,5,1.85,385.3,M,47.6,M,,*54
$GPGSA,A,3,05,13,08,28,30,,,,,,,,2.05,1.85,0.86*01
$GP,3,1,12,13,84,321,44,28,57,096,35,15,48,296,45,05,33,195,47*78
,33,067,41,24,13,254,25,08,08,026,26,21,07,302,20*7B
$GPGSV,3,3,07,04,069,16,17,01,130,16,34,,,*4F
$GPRMC,035847.000,A,4930.04,E,17.14,313.30,040619,,,A*5C
$GPGGA,035848.000,4930.0526,N,00546.5633,E,1,5,1.85,384.9,M,47.6,M,,*5F
$GPGSA,A,3,05,13,08,28,30,,,,,,,,2.05,1.85,0.86*01
$GP,3,1,12,13,84,321,44,28,57,096,35,15,48,296,45,05,33,195,47*78
,13,254,25,08,08,026,33,21,07,302,19*75
$GPGSV,3,3,12,20,07,326,17,01,130,16,34,,,*4E
$GPRMC,035848.000,A,4930.0526,N,00546.564,040619,,,A*5D
$GPGGA,035849.000,4930.0561,N,00546.5573,E,1,5,1.85,384.8,M,47.6,M,,*5B
$GPGSA,A,3,05,13,08,28,30,,,,,,,,2.05,1.85,0.86*01
$GP,3,1,12,13,84,321,44,28,57,096,35,15,48,296,45,05,33,195,47*78
,33,067,41,24,13,254,18,08,08,026,32,21,07,302,19*7A
$GPGSV,3,3,07,04,069,28,17,01,130,16,34,,,*42
$GPRMC,035849.000,A,4930.05E,17.35,310.82,040619,,,A*50
$GPGGA,035850.000,4930.0594,N,00546.5512,E,1,5,1.86,385.1,M,47.6,M,,*55
$GPGSA,A,3,05,13,08,28,30,,,,,,,,2.05,1.86,0.86*02
$GP,3,1,12,13,84,321,44,28,57,096,34,15,48,296,45,05,33,195,30*79
,33,067,40,24,13,254,25,08,08,026,20,21,07,302,19*76
$GPGSV,3,3,07,04,069,36,17,01,130,17,34,,,*4D
$GPRMC,035850.000,A,4930.05E,18.11,309.37,040619,,,A*5A
$GPGGA,035851.000,4930.0623,N,00546.5449,E,1,5,1.86,385.2,M,47.6,M,,*57
$GPGSA,A,3,05,13,08,28,30,,,,,,,,2.05,1.86,0.86*02
$GP,3,1,12,13,84,321,44,28,57,096,33,15,48,296,45,05,33,195,40*79
,13,254,23,08,08,026,21,21,07,302,19*70
$GPGSV,3,3,12,20,07,326,17,01,130,18,34,,,*4D
$GPRMC,035851.000,A,4930.0623,N,00546.546,040619,,,A*5B
$GPGGA,035852.000,4930.0654,N,00546.5382,E,1,5,1.86,385.3,M,47.6,M,,*55
$GPGSA,A,3,05,13,08,28,30,,,,,,,,2.05,1.86,0.86*02
$GP,3,1,12,13,84,321,44,28,57,096,33,15,48,296,45,05,33,195,40*79
,33,067,43,24,13,254,22,08,08,026,22,21,07,302,20*7A
$GPGSV,3,3,07,04,069,27,17,01,130,18,34,,,*42
$GPRMC,035852.000,A,4930.064,040619,,,A*5B
$GPGGA,035853.000,4930.0680,N,00546.5315,E,1,5,1.86,385.6,M,47.6,M,,*56
$GPGSA,A,3,05,13,08,28,30,,,,,,,,2.05,1.86,0.86*02
$GP,3,1,12,13,84,321,44,28,57,096,34,15,48,296,45,05,33,195,32*7B
,33,067,43,24,13,254,23,08,08,026,23,21,07,302,30*7B
$GPGSV,3,3,07,04,069,28,17,01,130,18,34,,,*45
$GPRMC,035853.000,A,4930.06,E,17.93,300.35,040619,,,A*50
$GPGGA,035854.000,4930.0704,N,00546.5252,E,1,5,1.86,385.7,M,47.6,M,,*5F
$GPGSA,A,3,05,13,08,28,30,,,,,,,,2.05,1.86,0.86*02
$GP,3,1,12,13,84,321,44,28,57,096,34,15,48,296,45,05,33,195,40*7E
4,22,08,08,026,21,21,07,302,28*70
$GPGSV,3,3,12,20,07,326,23,07,130,19,35,,,*4A
$GPRMC,035854.000,A,4930.0704,N,00546.5252,E,1619,,,A*56
$GPGGA,035855.000,4930.0728,N,00546.5183,E,1,5,1.86,385.3,M,47.6,M,,*5B
$GPGSA,A,3,05,13,08,28,30,,,,,,,,2.05,1.86,0.86*02
$GP,3,1,12,13,84,321,45,28,57,096,27,15,48,296,45,05,33,195,40*7D
,33,067,36,24,13,254,38,08,08,026,34,21,07,302,27*73
$GPGSV,3,3,07,04,069,24,17,01,130,19,35,,,*4A
$GPRMC,035855.000,A,4930.07$GPGGA,035856.000,4930.0745,N,00546.5119,E,1,5,1.86,385.3,M,47.6,M,,*50
$GPGSA,A,3,05,13,08,28,30,,,,,,,,2.05,1.86,0.86*02
$GP,3,1,12,13,84,321,46,28,57,096,25,15,48,296,44,05,33,195,39*73
,33,067,35,24,13,254,38,08,08,026,26,21,07,302,26*72
$GPGSV,3,3,07,04,069,16,17,01,130,18,35,,,*4B
$GPRMC,035856.000,A,4930.07E,15.97,290.81,040619,,,A*52
$GPGGA,035857.000,4930.0758,N,00546.5056,E,1,5,1.86,385.2,M,47.6,M,,*56
$GPGSA,A,3,05,13,08,28,30,,,,,,,,2.05,1.86,0.86*02
$GP,3,1,12,13,84,321,46,28,57,096,27,15,48,296,43,05,33,195,38*77
,13,254,37,08,08,026,18,21,07,302,19*7D
$GPGSV,3,3,12,20,07,326,17,01,130,17,35,,,*45
$GPRMC,035857.000,A,4930.0758,N,00546.501,040619,,,A*54
$GPGGA,035858.000,4930.0769,N,00546.4995,E,1,5,1.85,385.0,M,47.6,M,,*5D
$GPGSA,A,3,05,13,08,28,30,,,,,,,,2.05,1.85,0.86*01
$GP,3,1,12,13,84,321,46,28,57,096,27,15,48,296,42,05,33,195,38*76
,33,067,35,24,13,254,37,08,08,026,25,21,07,302,19*72
$GPGSV,3,3,07,04,069,17,17,01,130,17,35,,,*45
$GPRMC,035858.000,A,4930.07E,15.86,287.17,040619,,,A*56
$GPGGA,035859.000,4930.0779,N,00546.4936,E,1,5,1.86,384.9,M,47.6,M,,*5F
$GPGSA,A,3,05,13,08,28,30,,,,,,,,2.05,1.86,0.86*02
$GP,3,1,12,13,84,322,46,28,57,096,28,15,48,296,41,05,33,195,38*79
,254,36,08,08,026,24,21,07,302,20*78
$GPGSV,3,3,12,20,07,326,21,01,130,16,35,,,*45
$GPRMC,035859.000,A,4930.0779,N,00546.4936,40619,,,A*50
$GPGGA,035900.000,4930.0789,N,00546.4883,E,1,5,1.86,385.1,M,47.6,M,,*5B
$GPGSA,A,3,05,13,08,28,30,,,,,,,,2.05,1.86,0.86*02
$GP,3,1,12,13,84,322,46,28,57,096,29,15,48,296,41,05,33,195,38*78
,13,254,35,08,08,026,24,21,07,302,21*7A
$GPGSV,3,3,12,20,07,3268,17,01,130,16,36,,,*49
$GPRMC,035900.000,A,4930.0789,N,00546.478,040619,,,A*55
$GPGGA,035901.000,4930.0813,N,00546.4760,E,1,6,1.25,373.2,M,47.6,M,,*54
$GPGSA,A,2,15,05,13,08,28,30,,,,,,,1.52,1.25,0.86*0F
$SV,3,1,12,13,84,322,45,28,57,096,29,15,48,296,40,05,33,195,37*7530,33,067,36,24,13,254,35,08,08,026,24,21,07,302,22*7A
$GPGSV,321,07,04,069,18,17,01,130,15,36,,,*4A
$GPRMC,035901.000,A,4930.0,E,11.15,288.55,040619,,,A*5A
$GPGGA,035902.000,4930.0824,N,00546.4724,E,1,6,1.25,372.9,M,47.6,M,,*59
$GPGSA,A,3,15,05,13,08,28,30,,,,,,,1.52,1.25,0.86*0E
$SV,3,1,12,13,84,322,45,28,57,096,30,15,48,296,39,05,33,195,38*7C30,33,067,36,24,13,254,34,08,08,026,24,21,07,302,23*7A
$GPGSV,332,07,04,069,17,17,01,130,15,36,,,*47
$GPRMC,035902.000,A,4930.4,E,10.80,289.07,040619,,,A*56
$GPGGA,035903.000,4930.0833,N,00546.4680,E,1,6,1.25,374.2,M,47.6,M,,*5C
$GPGSA,A,3,15,05,13,08,28,30,,,,,,,1.52,1.25,0.86*0E
$SV,3,1,12,13,84,322,46,28,57,096,30,15,48,296,39,05,33,195,38*7F24,13,254,33,08,08,026,23,21,07,302,22*7B
$GPGSV,3,3,12,20,07,316,17,01,130,15,36,,,*41
$GPRMC,035903.000,A,4930.0833,N,00546..67,040619,,,A*59
$GPGGA,035904.000,4930.0845,N,00546.4629,E,1,6,1.25,371.9,M,47.6,M,,*57
$GPGSA,A,3,15,05,13,08,28,30,,,,,,,1.52,1.25,0.86*0E
$SV,3,1,12,13,84,322,46,28,57,096,29,15,48,296,39,05,33,195,37*7830,33,067,36,24,13,254,32,08,08,026,22,21,07,302,21*78
$GPGSV,324,07,04,069,16,17,01,130,14,36,,,*40
$GPRMC,035904.000,A,4930.7.40,040619,,,A*5A
$GPGGA,035905.000,4930.0858,N,00546.4566,E,1,6,1.25,369.8,M,47.6,M,,*5A
$GPGSA,A,3,15,05,13,08,28,30,,,,,,,1.52,1.25,0.86*0E
$2,13,84,322,46,28,57,096,27,15,48,296,39,05,33,195,37*76
$GPGSV7,36,24,13,254,32,08,08,026,22,21,07,302,19*73
$GPGSV,3,3,12,20,069,16,17,01,130,15,36,,,*46
$GPRMC,035905.000,A,4930.0858,N,03,286.56,040619,,,A*5F
$GPGGA,035906.000,4930.0876,N,00546.4486,E,1,6,1.25,369.8,M,47.6,M,,*5A
$GPGSA,A,3,15,05,13,08,28,30,,,,,,,1.52,1.25,0.86*0E
$SV,3,1,12,13,84,322,46,28,57,096,26,15,48,296,40,05,33,195,36*78,24,13,254,33,08,08,026,23,20,08,326,21*73
$GPGSV,3,3,12,21,07,,17,17,01,130,15,38,,,*46
$GPRMC,035906.000,A,4930.0876,N,005468.46,040619,,,A*58
$GPGGA,035907.000,4930.0896,N,00546.4409,E,1,6,1.25,369.6,M,47.6,M,,*5C
$GPGSA,A,3,15,05,13,08,28,30,,,,,,,1.52,1.25,0.86*0E
$SV,3,1,12,13,84,322,46,28,57,096,27,15,48,296,41,05,33,195,36*7830,33,067,26,24,13,254,23,08,08,026,21,20,08,326,20*73
$GPGSV,318,07,04,069,17,17,01,130,14,38,,,*47
$GPRMC,035907.000,A,4930.$GPGGA,035908.000,4930.0918,N,00546.4332,E,1,5,1.44,368.6,M,47.6,M,,*5E
$GPGSA,A,3,15,05,13,28,30,,,,,,,,1.72,1.44,0.94*00
$GP,3,1,12,13,84,322,46,28,57,096,28,15,48,296,42,05,33,195,37*75
,33,067,28,24,13,254,23,08,08,026,19,20,08,326,20*76
$GPGSV,3,3,07,04,069,17,17,01,130,14,38,,,*46
$GPRMC,035908.000,A,4930.09,E,19.76,293.90,040619,,,A*54
$GPGGA,035909.000,4930.0943,N,00546.4256,E,1,5,1.44,368.2,M,47.6,M,,*56
$GPGSA,A,3,15,05,13,28,30,,,,,,,,1.72,1.44,0.94*00
$GP,3,1,12,13,84,322,46,28,57,096,29,15,48,296,43,05,33,195,37*75
,13,254,30,08,08,026,17,20,08,326,30*7A
$GPGSV,3,3,12,21,07,302,17,01,130,14,38,,,*4D
$GPRMC,035909.000,A,4930.0943,N,00546.4237,040619,,,A*55
$GPGGA,035910.000,4930.0970,N,00546.4179,E,1,6,1.25,368.7,M,47.6,M,,*51
$GPGSA,A,3,15,05,13,08,28,30,,,,,,,1.52,1.25,0.86*0E
$SV,3,1,12,13,84,322,46,28,57,096,28,15,48,296,44,05,33,195,38*7C30,33,067,29,24,13,254,31,08,08,026,18,20,08,326,31*75
$GPGSV,329,07,04,069,17,17,01,130,15,38,,,*44
$GPRMC,035910.000,A,4930.9,E,20.79,298.42,040619,,,A*5F
$GPGGA,035911.000,4930.1003,N,00546.4101,E,1,6,1.25,368.1,M,47.6,M,,*55
$GPGSA,A,3,15,05,13,08,28,30,,,,,,,1.52,1.25,0.86*0E
$322,46,28,57,096,29,15,48,296,45,05,33,195,39*7D
$GPGSV,3,2,12,13,254,32,08,08,026,20,20,08,326,30*7D
$GPGSV,3,3,12,21,07,302,17,01,130,15,38,,,*4B
$GPRMC,035911.000,A,4930.1003,N,00546.410,040619,,,A*55
$GPGGA,035912.000,4930.1040,N,00546.4024,E,1,6,1.25,367.6,M,47.6,M,,*5F
$GPGSA,A,3,15,05,13,08,28,30,,,,,,,1.52,1.25,0.86*0E
$SV,3,1,12,13,84,322,46,28,57,096,30,15,48,296,45,05,33,195,46*7D24,13,254,40,08,08,026,29,20,08,326,29*77
$GPGSV,3,3,12,21,07,316,17,01,130,15,38,,,*4A
$GPRMC,035912.000,A,4930.1040,N,00546..34,040619,,,A*51
$GPGGA,035913.000,4930.1080,N,00546.3948,E,1,6,1.25,367.9,M,47.6,M,,*59
$GPGSA,A,3,15,05,13,08,28,30,,,,,,,1.52,1.25,0.86*0E
$SV,3,1,12,13,84,322,46,28,57,096,31,15,48,296,45,05,33,195,46*7C30,33,067,41,24,13,254,40,08,08,026,28,20,08,326,28*76
$GPGSV,326,07,04,069,17,17,01,130,15,41,,,*45
$GPRMC,035913.000,A,4930.8,E,22.86,307.94,040619,,,A*58
$GPGGA,035914.000,4930.1121,N,00546.3869,E,1,6,1.25,367.8,M,47.6,M,,*57
$GPGSA,A,3,15,05,13,08,28,30,,,,,,,1.52,1.25,0.86*0E
$SV,3,1,12,13,84,322,46,28,57,096,32,15,48,296,46,05,33,195,46*7C30,33,067,42,24,13,254,40,08,08,026,28,20,08,326,28*75
$GPGSV,326,07,04,069,17,17,01,130,14,41,,,*44
$GPRMC,035914.000,A,4930.9,E,23.66,307.45,040619,,,A*54
$GPGGA,035915.000,4930.1162,N,00546.3787,E,1,6,1.25,367.0,M,47.6,M,,*56
$GPGSA,A,3,15,05,13,08,28,30,,,,,,,1.52,1.25,0.86*0E
$SV,3,1,12,13,84,322,46,28,57,096,32,15,48,296,46,05,33,195,46*7C,24,13,254,23,08,08,026,30,20,08,326,28*79
$GPGSV,3,3,12,21,07,,17,17,01,130,14,41,,,*44
$GPRMC,035915.000,A,4930.1162,N,005466.23,040619,,,A*5A
$GPGGA,035916.000,4930.1206,N,00546.3701,E,1,6,1.25,365.4,M,47.6,M,,*5C
$GPGSA,A,3,15,05,13,08,28,30,,,,,,,1.52,1.25,0.86*0E
$SV,3,1,12,13,84,322,46,28,57,096,32,15,48,296,46,05,33,195,45*7F30,32,068,42,24,13,254,31,08,08,026,31,20,08,326,27*7A
$GPGSV,326,07,04,069,17,17,01,130,13,41,,,*43
$GPRMC,035916.000,A,4930..26,040619,,,A*56
$GPGGA,035917.000,4930.1249,N,00546.3612,E,1,6,1.26,364.8,M,47.6,M,,*5B
$GPGSA,A,3,15,05,13,08,28,30,,,,,,,1.52,1.26,0.86*0D
$84,322,46,28,57,096,33,15,48,296,46,05,33,195,46*7D
$GPGSV,3,2,,24,13,254,39,08,08,026,32,20,08,326,27*71
$GPGSV,3,3,12,21,07,,17,17,01,130,14,41,,,*47
$GPRMC,035917.000,A,4930.1249,N,005465.03,040619,,,A*5E
$GPGGA,035918.000,4930.1291,N,00546.3522,E,1,6,1.25,364.0,M,47.6,M,,*5A
$GPGSA,A,3,15,05,13,08,28,30,,,,,,,1.52,1.25,0.86*0E
$SV,3,1,12,13,84,322,46,28,57,096,33,15,48,296,46,05,33,195,46*7D24,13,254,38,08,08,026,33,20,08,326,28*7E
$GPGSV,3,3,12,21,07,317,17,01,130,14,41,,,*46
$GPRMC,035918.000,A,4930.1291,N,00546..89,040619,,,A*59
$GPGGA,035919.000,4930.1333,N,00546.3431,E,1,6,1.25,363.2,M,47.6,M,,*54
$GPGSA,A,3,15,05,13,08,28,30,,,,,,,1.52,1.25,0.86*0E
$SV,3,1,12,13,84,322,46,28,57,096,33,15,48,296,46,05,33,195,46*7D30,32,068,42,24,13,254,23,08,08,026,25,20,08,326,28*73
$GPGSV,324,07,04,069,17,17,01,130,15,41,,,*47
$GPRMC,035919.000,A,4930.$GPGGA,035920.000,4930.1375,N,00546.3340,E,1,6,1.25,362.7,M,47.6,M,,*59
$GPGSA,A,3,15,05,13,08,28,30,,,,,,,1.52,1.25,0.86*0E
$SV,3,1,12,13,84,322,46,28,57,096,33,15,48,296,46,05,33,195,46*7D30,32,068,42,24,13,254,37,08,08,026,34,20,08,326,28*76
$GPGSV,324,07,04,069,17,17,01,130,15,43,,,*45
$GPRMC,035920.000,A,4930.0,E,26.27,305.29,040619,,,A*58
$GPGGA,035921.000,4930.1418,N,00546.3249,E,1,6,1.25,362.5,M,47.6,M,,*5E
$GPGSA,A,3,15,05,13,08,28,30,,,,,,,1.52,1.25,0.86*0E
$SV,3,1,12,13,84,322,46,28,57,096,33,15,48,296,46,05,33,195,46*7D24,13,254,38,08,08,026,34,20,08,326,28*79
$GPGSV,3,3,12,21,07,317,17,01,130,14,43,,,*44
$GPRMC,035921.000,A,4930.1418,N,00546..14,040619,,,A*5A
$GPGGA,035922.000,4930.1460,N,00546.3159,E,1,6,1.25,361.8,M,47.6,M,,*5E
$GPGSA,A,3,15,05,13,08,28,30,,,,,,,1.52,1.25,0.86*0E
$SV,3,1,12,13,84,322,46,28,57,096,34,15,48,296,46,05,33,195,46*7A30,32,068,42,24,13,254,39,08,08,026,33,20,08,326,28*7F
$GPGSV,3,23,07,04,069,17,17,01,130,14,43,,,*43
$GPRMC,035922.000,A,493059,E,25.72,305.53,040619,,,A*5D
$GPGGA,035923.000,4930.1502,N,00546.3070,E,1,6,1.25,360.9,M,47.6GPGSA,A,3,15,05,13,08,28,30,,,,,,,1.52,1.25,0.86*0E
$GPGSV,3,1,2,20,08,326,28*7E
$GPGSV,3,3,12,21,07,302,22,07,04,069,17,17,01
$GPRMC,035923.000,A,4930.1502,N,00546.3070,E,25.53,305.86,0406$GPGGA,035924.000,4930.1543,N,00546.2984,E,1,6,1.25,360.6,M,47.6,M,,*5E
$GPGSA,A,3,15,05,13,08,28,30,,,,,,,1.52,1.25,0.86*0E
$SV,3,1,12,13,84,322,46,28,57,096,35,15,48,296,46,05,33,195,46*7B30,32,068,42,24,13,254,39,08,08,026,31,20,08,326,27*72
$GPGSV,317,17,01,130,14,43,,,*42
$GPRMC,035924.000,A,4930.1543,N,00546..41,040619,,,A*52
$GPGGA,035925.000,4930.1584,N,00546.2900,E,1,6,1.25,360.4,M,47.6,M,,*5A
$GPGSA,A,3,15,05,13,08,28,30,,,,,,,1.52,1.25,0.86*0E
$SV,3,1,12,13,84,322,46,28,57,096,35,15,48,296,46,05,33,195,46*7B30,32,068,42,24,13,254,39,08,08,026,24,20,08,326,19*7B
$GPGSV,322,07,04,069,18,17,01,130,14,43,,,*4D
$GPRMC,035925.000,A,4930.0,E,24.19,306.26,040619,,,A*59
$GPGGA,035926.000,4930.1623,N,00546.2818,E,1,6,1.25,359.9,M,47.6,M,,*58
$GPGSA,A,3,15,05,13,08,28,30,,,,,,,1.52,1.25,0.86*0E
$SV,3,1,12,13,84,322,46,28,57,096,35,15,48,296,46,05,32,195,46*7A30,32,068,41,24,13,254,39,08,08,026,24,20,08,326,19*78
$GPGSV,321,07,04,069,18,17,01,130,14,45,,,*48
$GPRMC,035926.000,A,4930.8,E,23.57,306.11,040619,,,A*55
$GPGGA,035927.000,4930.1662,N,00546.2739,E,1,6,1.25,359.5,M,47.6,M,,*5C
$GPGSA,A,3,15,05,13,08,28,30,,,,,,,1.52,1.25,0.86*0E
$SV,3,1,12,13,84,322,46,28,57,096,36,15,48,296,46,05,32,195,46*7930,32,068,40,24,13,254,39,08,08,026,26,20,08,326,19*7B
$GPGSV,318,17,01,130,14,45,,,*49
$GPRMC,035927.000,A,4930.1662,N,00546..50,040619,,,A*58
$GPGGA,035928.000,4930.1699,N,00546.2661,E,1,5,1.44,359.5,M,47.6,M,,*5F
$GPGSA,A,3,15,05,13,28,30,,,,,,,,1.72,1.44,0.94*00
$GP,3,1,12,13,84,322,46,28,57,096,36,15,48,296,46,05,32,195,46*79
,32,068,41,24,13,254,39,08,08,026,24,20,08,326,19*78
$GPGSV,3,3,07,04,069,18,17,01,130,13,45,,,*44
$GPRMC,035928.000,A,4930.16E,22.17,306.64,040619,,,A*5D
$GPGGA,035929.000,4930.1735,N,00546.2586,E,1,5,1.44,359.5,M,47.6,M,,*53
$GPGSA,A,3,15,05,13,28,30,,,,,,,,1.72,1.44,0.94*00
$GP,1,12,13,84,322,46,28,57,096,36,15,48,296,46,05,32,195,46*79
$G32,068,41,24,13,254,39,08,08,026,22,20,08,326,28*7C
$GPGSV,3,3,,07,04,069,17,17,01,130,13,45,,,*4A
$GPRMC,035929.000,A,4930.17E,21.64,307.09,040619,,,A*5C
$GPGGA,035930.000,4930.1771,N,00546.2513,E,1,6,1.25,358.9,M,47.6,M,,*5E
$GPGSA,A,3,15,05,13,08,28,30,,,,,,,1.52,1.25,0.86*0E
$SV,3,1,12,13,84,322,46,28,57,096,36,15,48,296,46,05,32,195,46*7930,32,068,40,24,13,254,39,08,08,026,23,20,08,326,28*7C
$GPGSV,3,16,17,01,130,13,45,,,*4A
$GPRMC,035930.000,A,4930.1771,N,005467.11,040619,,,A*56
$GPGGA,035931.000,4930.1805,N,00546.2438,E,1,5,1.44,359.3,M,47.6,M,,*54
$GPGSA,A,3,15,05,13,28,30,,,,,,,,1.72,1.44,0.94*00
$GP,3,1,12,13,84,322,46,28,57,096,36,15,48,296,46,05,32,195,46*79
,32,068,41,24,13,254,39,08,08,026,22,20,08,326,29*7D
$GPGSV,3,3,07,04,069,14,17,01,130,13,45,,,*49
$GPRMC,035931.000,A,4930.18E,21.18,305.94,040619,,,A*50
$GPGGA,035932.000,4930.1839,N,00546.2365,E,1,5,1.44,359.4,M,47.6,M,,*50
$GPGSA,A,3,15,05,13,28,30,,,,,,,,1.72,1.44,0.94*00
$GP,3,1,12,13,84,322,46,28,57,096,36,15,48,296,46,05,32,195,46*79
,32,068,41,24,13,254,40,08,08,026,22,20,08,326,29*73
$GPGSV,3,3,07,04,069,14,17,01,130,13,46,,,*45
$GPRMC,035932.000,A,4930.18E,20.81,305.73,040619,,,A*5B
$GPGGA,035933.000,4930.1872,N,00546.2293,E,1,5,1.45,359.5,M,47.6,M,,*56
$GPGSA,A,3,15,05,13,28,30,,,,,,,,1.72,1.45,0.94*01
$GP,3,1,12,13,84,322,45,28,57,096,36,15,48,296,46,05,32,195,46*7A
,13,254,40,08,08,026,20,20,08,326,30*7A
$GPGSV,3,3,12,21,07,302,17,01,130,14,46,,,*43
$GPRMC,035933.000,A,4930.1872,N,00546.223,040619,,,A*50
$GPGGA,035934.000,4930.1904,N,00546.2220,E,1,5,1.44,359.1,M,47.6,M,,*5C
$GPGSA,A,3,15,05,13,28,30,,,,,,,,1.72,1.44,0.94*00
$GP,3,1,12,13,84,323,45,28,57,096,36,15,48,296,46,05,32,195,46*7B
,32,068,42,24,13,254,38,08,08,026,20,20,08,326,31*74
$GPGSV,3,3,07,04,069,16,17,01,130,14,46,,,*40
$GPRMC,035934.000,A,4930.19E,20.71,302.96,040619,,,A*51
$GPGGA,035935.000,4930.1934,N,00546.2144,E,1,6,1.25,358.6,M,47.6,M,,*5D
$GPGSA,A,3,15,05,13,08,28,30,,,,,,,1.52,1.25,0.86*0E
$SV,3,1,12,13,84,323,45,28,57,096,36,15,48,296,45,05,32,195,46*7830,32,068,32,24,13,254,38,08,08,026,31,20,08,326,33*71
$GPGSV,316,07,04,069,16,17,01,130,14,46,,,*41
$GPRMC,035935.000,A,4930.4,E,20.93,300.22,040619,,,A*53
$GPGGA,035936.000,4930.1962,N,00546.2065,E,1,6,1.29,358.5,M,47.6,M,,*50
$GPGSA,A,3,15,05,13,08,28,30,,,,,,,2.10,1.29,1.66*08
$SV,3,1,12,13,84,323,45,28,57,096,35,15,48,296,44,05,32,195,45*7924,13,254,38,08,08,026,39,20,08,326,33*79
$GPGSV,3,3,12,21,07,316,17,01,130,14,46,,,*42
$GPRMC,035936.000,A,4930.1962,N,00546.7.14,040619,,,A*54
$GPGGA,035937.000,4930.1988,N,00546.1982,E,1,6,1.25,358.2,M,47.6,M,,*5D
$GPGSA,A,3,15,05,13,08,28,30,,,,,,,1.52,1.25,0.86*0E
$SV,3,1,12,13,84,323,45,28,57,096,35,15,48,296,42,05,32,195,44*7E30,32,068,25,24,13,254,38,08,08,026,25,20,08,326,32*73
$GPGSV,326,07,04,069,16,17,01,130,15,46,,,*43
$GPRMC,035937.000,A,4930.2,E,21.86,294.06,040619,,,A*58
$GPGGA,035938.000,4930.2011,N,00546.1893,E,1,6,1.25,357.8,M,47.6,M,,*5C
$GPGSA,A,3,15,05,13,08,28,30,,,,,,,1.52,1.25,0.86*0E
$SV,3,1,12,13,84,323,45,28,57,096,35,15,48,296,40,05,32,195,43*7B30,32,068,26,24,13,254,36,08,08,026,36,20,08,326,33*7D
$GPGSV,318,07,04,069,18,17,01,129,15,47,,,*49
$GPRMC,035938.000,A,4930.3,E,23.38,290.27,040619,,,A*5C
$GPGGA,035939.000,4930.2031,N,00546.1799,E,1,6,1.25,357.3,M,47.6,M,,*51
$GPGSA,A,3,15,05,13,08,28,30,,,,,,,1.52,1.25,0.86*0E
$SV,3,1,12,13,84,323,45,28,57,096,27,15,48,296,38,05,32,195,43*7724,13,254,28,08,08,026,34,20,08,326,32*72
$GPGSV,3,3,12,21,07,320,17,01,129,15,47,,,*42
$GPRMC,035939.000,A,4930.2031,N,00546..30,040619,,,A*57
$GPGGA,035940.000,4930.2048,N,00546.1706,E,1,6,1.25,356.9,M,47.6,M,,*5C
$GPGSA,A,3,15,05,13,08,28,30,,,,,,,1.52,1.25,0.86*0E
$SV,3,1,12,13,84,323,45,28,57,096,26,15,48,296,37,05,32,195,43*7930,32,068,35,24,13,254,29,08,08,026,34,20,08,326,31*71
$GPGSV,318,07,04,069,21,17,01,129,15,47,,,*43
$GPRMC,035940.000,A,4930.5.19,040619,,,A*5B
$GPGGA,035941.000,4930.2064,N,00546.1610,E,1,6,1.25,356.9,M,47.6,M,,*55
$GPGSA,A,3,15,05,13,08,28,30,,,,,,,1.52,1.25,0.86*0E
$SV,3,1,12,13,84,323,45,28,57,096,26,15,48,296,36,05,32,195,44*7F30,32,068,37,24,13,254,30,08,08,026,35,20,08,326,30*7B
$GPGSV,318,07,04,069,22,17,01,129,15,47,,,*40
$GPRMC,035941.000,A,4930.0,E,23.64,284.74,040619,,,A*5F
$GPGGA,035942.000,4930.2081,N,00546.1511,E,1,6,1.25,356.6,M,47.6,M,,*50
$GPGSA,A,3,15,05,13,08,28,30,,,,,,,1.52,1.25,0.86*0E
$SV,3,1,12,13,84,323,45,28,57,096,25,15,48,296,35,05,32,195,44*7F24,13,254,31,08,08,026,35,20,08,326,30*74
$GPGSV,3,3,12,21,07,3,24,17,01,129,15,47,,,*46
$GPRMC,035942.000,A,4930.2081,N,005464.89,040619,,,A*55
$GPGGA,035943.000,4930.2097,N,00546.1410,E,1,6,1.29,356.1,M,47.6,M,,*5D
$GPGSA,A,3,15,05,13,08,28,30,,,,,,,2.10,1.29,1.65*0B
$SV,3,1,12,13,84,323,45,28,57,096,25,15,48,296,33,05,32,195,44*7930,32,068,40,24,13,254,32,08,08,026,34,20,08,326,30*78
$GPGSV,319,07,04,069,24,17,01,129,16,47,,,*44
$GPRMC,035943.000,A,4930.$GPGGA,035944.000,4930.2113,N,00546.1307,E,1,6,1.25,355.6,M,47.6,M,,*5E
$GPGSA,A,3,15,05,13,08,28,30,,,,,,,1.52,1.25,0.86*0E
$SV,3,1,12,13,84,323,45,28,57,096,24,15,48,296,31,05,32,195,44*7A30,32,068,41,24,13,254,33,08,08,026,33,20,08,326,32*7D
$GPGSV,326,07,04,069,23,17,01,129,16,47,,,*4F
$GPRMC,035944.000,A,4930.7,E,25.29,283.91,040619,,,A*5B
$GPGGA,035945.000,4930.2128,N,00546.1202,E,1,6,1.25,355.2,M,47.6,M,,*57
$GPGSA,A,3,15,05,13,08,28,30,,,,,,,1.52,1.25,0.86*0E
$SV,3,1,12,13,84,323,45,28,57,096,24,15,48,296,19,05,32,195,44*7024,13,254,33,08,08,026,33,20,08,326,33*7F
$GPGSV,3,3,12,21,07,331,17,01,129,16,49,,,*4C
$GPRMC,035945.000,A,4930.2128,N,00546..97,040619,,,A*5C
$GPGGA,035946.000,4930.2141,N,00546.1094,E,1,5,1.44,354.6,M,47.6,M,,*57
$GPGSA,A,3,15,05,13,28,30,,,,,,,,1.72,1.44,0.94*00
$GP,3,1,12,13,84,323,44,28,57,096,24,15,48,296,20,05,32,195,45*7A
,32,068,42,24,13,254,33,08,08,026,25,20,08,326,32*79
$GPGSV,3,3,07,04,069,31,17,01,129,16,49,,,*4D
$GPRMC,035946.000,A,4930.21E,25.64,279.97,040619,,,A*5D
$GPGGA,035947.000,4930.2150,N,00546.0981,E,1,6,1.25,353.8,M,47.6,M,,*57
$GPGSA,A,3,15,05,13,08,28,30,,,,,,,1.52,1.25,0.86*0E
$SV,3,1,12,13,84,323,43,28,57,096,25,15,48,296,29,05,32,195,46*7630,32,068,42,24,13,254,25,08,08,026,27,20,08,326,31*7F
$GPGSV,328,07,04,069,29,17,01,129,16,49,,,*45
$GPRMC,035947.000,A,4930.1,E,26.65,275.18,040619,,,A*59
$GPGGA,035948.000,4930.2151,N,00546.0872,E,1,6,1.25,353.2,M,47.6,M,,*5E
$GPGSA,A,3,15,05,13,08,28,30,,,,,,,1.52,1.25,0.86*0E
$SV,3,1,12,13,84,323,43,28,57,096,27,15,48,296,38,05,32,195,47*75,24,13,254,25,08,08,026,34,20,08,326,32*7E
$GPGSV,3,3,12,21,07,,21,17,01,129,16,49,,,*4C
$GPRMC,035948.000,A,4930.2151,N,005469.35,040619,,,A*5E
$GPGGA,035949.000,4930.2147,N,00546.0762,E,1,6,1.26,352.6,M,47.6,M,,*50
$GPGSA,A,3,15,05,13,08,28,30,,,,,,,1.52,1.26,0.86*0D
$SV,3,1,12,13,84,323,43,28,57,095,27,15,48,296,39,05,32,195,48*7830,32,068,34,24,13,254,25,08,08,026,33,20,08,326,33*79
$GPGSV,329,07,04,069,21,17,01,129,17,49,,,*4D
$GPRMC,035949.000,A,4930..77,040619,,,A*51
$GPGGA,035950.000,4930.2137,N,00546.0655,E,1,6,1.25,352.2,M,47.65D
$GPGSA,A,3,15,05,13,08,28,30,,,,,,,1.52,1.25,0.86*0E
$GPGSV323,43,28,57,095,28,15,48,296,41,05,32,195,49*79
$GPGSV,3,2,12,13,254,25,08,08,026,31,20,08,326,33*78
$GPGSV,3,3,12,21,07,302,17,01,129,16,49,,,*43
$GPRMC,035950.000,A,4930.2137,N,00546.065,040619,,,A*52
$GPGGA,035951.000,4930.2121,N,00546.0553,E,1,6,1.26,352.1,M,47.6,M,,*5E
$GPGSA,A,3,15,05,13,08,28,30,,,,,,,1.52,1.26,0.86*0D
$SV,3,1,12,13,84,323,43,28,57,095,39,15,48,296,42,05,32,195,49*7A,24,13,254,18,08,08,026,21,20,08,326,32*78
$GPGSV,3,3,12,21,07,,19,17,01,129,16,49,,,*46
$GPRMC,035951.000,A,4930.2121,N,005466.85,040619,,,A*5D
$GPGGA,035952.000,4930.2104,N,00546.0452,E,1,6,1.25,351.8,M,47.6,M,,*53
$GPGSA,A,3,15,05,13,08,28,30,,,,,,,1.52,1.25,0.86*0E
$SV,3,1,12,13,84,323,43,28,57,095,39,15,48,296,42,05,32,195,30*74,30,32,068,30,37,31,159,,24,13,254,17,08,08,026,21*79
$GPGSV,3,0,21,07,302,36,07,04,069,19,17,01,129,16*7A
$GPRMC,035952.000,A22,255.84,040619,,,A*58
$GPGGA,035953.000,4930.2086,N,00546.0352,E,1,6,1.26,351.4,M,47.6,M,,*51
$GPGSA,A,3,15,05,13,08,28,30,,,,,,,1.52,1.26,0.86*0D
$SV,3,1,12,13,84,323,44,28,57,095,39,15,48,296,43,05,32,195,41*7430,32,068,30,37,31,159,,24,13,254,17,08,08,026,23*7B
$GPGSV,3,3,21,07,302,36,07,04,069,19,17,01,129,16*72
$GPRMC,035953.000,A,6.0352,E,24.58,255.43,040619,,,A*52
$GPGGA,035954.000,4930.2069,N,00546.0252,E,1,6,1.26,351.1,M,47.6,M,,*53
$GPGSA,A,3,15,05,13,08,28,30,,,,,,,1.52,1.26,0.86*0D
$84,323,45,28,57,095,40,15,48,296,43,05,32,195,39*74
$GPGSV,3,2,,37,31,159,,24,13,254,15,08,08,026,23*78
$GPGSV,3,3,12,20,08,327,07,04,069,19,17,01,129,16*7A
$GPRMC,035954.000,A,4930.2069,N,62,257.41,040619,,,A*5C
$GPGGA,035955.000,4930.2054,N,00546.0151,E,1,6,1.25,351.0,M,47.6,M,,*5E
$GPGSA,A,3,15,05,13,08,28,30,,,,,,,1.52,1.25,0.86*0E
$SV,3,1,12,13,84,323,46,28,57,095,39,15,48,296,43,05,32,195,32*7230,32,068,30,37,31,159,,24,13,254,15,08,08,026,30*7B
$GPGSV,3,3,21,07,302,29,07,04,069,20,17,01,129,16*79
$GPRMC,035955.000,A,$GPGGA,035956.000,4930.2043,N,00546.0047,E,1,6,1.26,350.8,M,47.6,M,,*57
$GPGSA,A,3,15,05,13,08,28,30,,,,,,,1.52,1.26,0.86*0D
$SV,3,1,12,13,84,323,46,28,57,095,38,15,48,296,43,05,32,195,34*7530,32,068,31,37,31,159,,24,13,254,14,08,08,026,29*73
$GPGSV,3,3,21,07,302,30,07,04,069,21,17,01,129,16*70
$GPRMC,035956.000,A,6.0047,E,24.68,261.46,040619,,,A*58
$GPGGA,035957.000,4930.2035,N,00545.9941,E,1,6,1.26,350.5,M,47.6,M,,*5F
$GPGSA,A,3,15,05,13,08,28,30,,,,,,,1.52,1.26,0.86*0D
$,84,323,46,28,57,095,28,15,48,296,30,05,32,195,35*71
$GPGSV,3,2,37,31,159,25,24,13,254,14,08,08,026,40*7F
$GPGSV,3,3,12,20,08,,31,07,04,069,29,17,01,129,16*76
$GPRMC,035957.000,A,4930.2035,4.08,266.41,040619,,,A*5B
$GPGGA,035958.000,4930.2034,N,00545.9840,E,1,6,1.26,350.1,M,47.6,M,,*55
$GPGSA,A,3,15,05,13,08,28,30,,,,,,,1.52,1.26,0.86*0D
$SV,3,1,12,13,84,323,46,28,57,095,27,15,48,296,30,05,32,195,36*7D30,32,068,43,37,31,159,26,24,13,254,15,08,08,026,31*7A
$GPGSV,338,21,07,302,32,07,04,069,30,17,01,129,15*7E
$GPRMC,035958.000,.19,273.16,040619,,,A*55
$GPGGA,035959.000,4930.2045,N,00545.9749,E,1,6,1.25,349.7,M,47.6,M,,*59
$GPGSA,A,3,15,05,13,08,28,30,,,,,,,1.52,1.25,0.86*0E
$SV,3,1,12,13,84,323,47,28,57,095,28,15,48,296,41,05,32,195,35*7630,32,068,33,37,31,159,28,24,13,254,16,08,08,026,39*78
$GPGSV,337,21,07,302,24,07,04,069,31,17,01,129,15*77
$GPRMC,035959.000,545.9749,E,20.98,285.31,040619,,,A*53
$GPGGA,040000.000,4930.2064,N,00545.9665,E,1,6,1.26,349.6,M,47.6,M,,*50
$GPGSA,A,3,15,05,13,08,28,30,,,,,,,1.52,1.26,0.86*0D
$84,323,47,28,57,095,29,15,48,296,42,05,32,195,34*75
$GPGSV,3,2,37,31,159,25,24,13,254,17,08,08,026,39*75
$GPGSV,3,3,12,20,08,325,07,04,069,30,17,01,129,15*76
$GPRMC,040000.000,A,4930.2064,N.98,291.34,040619,,,A*58
$GPGGA,040001.000,4930.2086,N,00545.9583,E,1,6,1.26,349.1,M,47.6,M,,*51
$GPGSA,A,3,15,05,13,08,28,30,,,,,,,1.52,1.26,0.86*0D
$2,13,84,323,47,28,57,095,30,15,48,296,42,05,32,195,34*7D
$GPGSV8,30,37,31,159,25,24,13,254,17,08,08,026,38*76
$GPGSV,3,3,12,20,302,26,07,04,069,31,17,01,129,14*75
$GPRMC,040001.000,A,4930.272,040619,,,A*57
$GPGGA,040002.000,4930.2107,N,00545.9495,E,1,6,1.26,348.5,M,47.6,M,,*59
$GPGSA,A,3,15,05,13,08,28,30,,,,,,,1.52,1.26,0.86*0D
$SV,3,1,12,13,84,323,47,28,57,095,28,15,48,296,40,05,32,195,34*7630,32,068,39,37,31,159,28,24,13,254,17,08,08,026,38*72
$GPGSV,328,21,07,302,25,07,04,069,31,17,01,129,14*79
$GPRMC,040002.000,545.9495,E,20.88,285.89,040619,,,A*51
$GPGGA,040003.000,4930.2126,N,00545.9405,E,1,6,1.26,348.5,M,47.6,M,,*52
